{"fishermans":[{"id":0,"equipment":"Rerum qui provident consequatur non sint sequi.","baits":"Est ut maxime veniam aut earum dolorum.","techniques":"Est corporis minus velit quia qui maxime.","poles":"aut sunt quia","contact":{"tel":"814-845-5650 x285","name":"Janiya Kovacek","address":{"zipCode":"43349-9599","street":"Eulah Rue","city":"West Nicolette","houseNumber":23}}},{"id":1,"equipment":"Eveniet cum ut molestias libero natus velit.","baits":"Repellat doloribus porro illo ut rerum nostrum.","techniques":"Necessitatibus aut et voluptatem et debitis tempore.","poles":"animi culpa ipsa","contact":{"tel":"1-223-444-3698 x94996","name":"Gavin Zboncak","address":{"zipCode":"37426-5160","street":"Casper Tunnel","city":"Streichton","houseNumber":23}}},{"id":2,"equipment":"Delectus minus voluptate temporibus quia laborum accusantium.","baits":"Quod quisquam omnis aut necessitatibus blanditiis deleniti.","techniques":"Omnis rerum debitis minima sit quo libero.","poles":"aut occaecati quam","contact":{"tel":"091-046-7380 x7025","name":"Roscoe Turcotte","address":{"zipCode":"05765","street":"Ahmed Knolls","city":"Violamouth","houseNumber":23}}},{"id":3,"equipment":"Nemo labore voluptatem incidunt repudiandae nostrum ipsa.","baits":"Aliquam dicta nesciunt illo quo quas laudantium.","techniques":"Molestiae quas nesciunt eligendi minus excepturi eos.","poles":"totam quam sed","contact":{"tel":"1-057-191-5350","name":"Sharon Jacobson","address":{"zipCode":"60718-2086","street":"Josiah Stream","city":"East Cali","houseNumber":23}}},{"id":4,"equipment":"Consequatur omnis quae fugiat voluptas magni aut.","baits":"Et voluptas aliquid et et ut consequatur.","techniques":"Itaque dolor ipsam sunt eum voluptatibus dolore.","poles":"ipsa delectus ut","contact":{"tel":"(790) 174-8074 x349","name":"Alfonso Trantow","address":{"zipCode":"51477-0393","street":"Ransom Fields","city":"Goyettetown","houseNumber":23}}}],"catches":[{"id":0,"timestamp":"2014-2-17","location":"New Mexico","weight":62086,"species":"partnerships","fishermanId":4},{"id":1,"timestamp":"2019-2-9","location":"New Hampshire","weight":5890,"species":"Louisiana","fishermanId":5},{"id":2,"timestamp":"2019-1-12","location":"Maine","weight":72041,"species":"Tactics","fishermanId":0},{"id":3,"timestamp":"2012-9-20","location":"Virginia","weight":81806,"species":"Automotive","fishermanId":0},{"id":4,"timestamp":"2015-5-26","location":"Virginia","weight":79122,"species":"Consultant","fishermanId":4},{"id":5,"timestamp":"2013-6-17","location":"North Dakota","weight":48437,"species":"Kentucky","fishermanId":0},{"id":6,"timestamp":"2012-9-17","location":"Kansas","weight":56321,"species":"Borders","fishermanId":4},{"id":7,"timestamp":"2014-8-12","location":"Connecticut","weight":60039,"species":"Planner","fishermanId":2},{"id":8,"timestamp":"2014-11-17","location":"Minnesota","weight":21184,"species":"collaborative","fishermanId":4},{"id":9,"timestamp":"2020-9-12","location":"New York","weight":92463,"species":"calculate","fishermanId":2},{"id":10,"timestamp":"2008-3-11","location":"New York","weight":97806,"species":"frame","fishermanId":4},{"id":11,"timestamp":"2000-2-26","location":"Virginia","weight":68154,"species":"didactic","fishermanId":0},{"id":12,"timestamp":"2017-11-26","location":"Utah","weight":54897,"species":"Montana","fishermanId":1},{"id":13,"timestamp":"2019-5-11","location":"Montana","weight":94640,"species":"PCI","fishermanId":5},{"id":14,"timestamp":"2003-10-14","location":"Pennsylvania","weight":98407,"species":"Cove","fishermanId":4},{"id":15,"timestamp":"2015-4-23","location":"Montana","weight":28879,"species":"Representative","fishermanId":2},{"id":16,"timestamp":"2020-12-26","location":"Wyoming","weight":81589,"species":"budgetary management","fishermanId":5},{"id":17,"timestamp":"2006-3-12","location":"Maine","weight":48400,"species":"Investor","fishermanId":4},{"id":18,"timestamp":"2013-11-1","location":"Vermont","weight":35696,"species":"Cotton","fishermanId":5},{"id":19,"timestamp":"2005-11-15","location":"Missouri","weight":57828,"species":"deposit","fishermanId":0}]}